{"type":"FeatureCollection", "features": [
{"type":"Feature","geometry":{"type":"Point","coordinates":[103.742163,1.3331695,0]},"properties":{"name":"NS1 Jurong East","styleUrl":"#icon-1716-C2185B-nodesc","styleHash":"199ab76c","styleMapHash":{"normal":"#icon-1716-C2185B-nodesc-normal","highlight":"#icon-1716-C2185B-nodesc-highlight"},"icon-scale":1,"icon":"images/icon-1.png","label-scale":0}},
{"type":"Feature","geometry":{"type":"Point","coordinates":[103.7495883,1.3490636,0]},"properties":{"name":"NS2 Bukit Batok","styleUrl":"#icon-1899-C2185B-nodesc","styleHash":"-3608e166","styleMapHash":{"normal":"#icon-1899-C2185B-nodesc-normal","highlight":"#icon-1899-C2185B-nodesc-highlight"},"icon-scale":1,"icon-offset":[32,64],"icon":"images/icon-2.png","label-scale":0}},
{"type":"Feature","geometry":{"type":"Point","coordinates":[103.7518308,1.3589147,0]},"properties":{"name":"NS3 Bukit Gombak","styleUrl":"#icon-1899-C2185B-nodesc","styleHash":"-3608e166","styleMapHash":{"normal":"#icon-1899-C2185B-nodesc-normal","highlight":"#icon-1899-C2185B-nodesc-highlight"},"icon-scale":1,"icon-offset":[32,64],"icon":"images/icon-2.png","label-scale":0}},
{"type":"Feature","geometry":{"type":"Point","coordinates":[103.7443409,1.3853617,0]},"properties":{"name":"NS4 Choa Chu Kang","styleUrl":"#icon-1716-C2185B-nodesc","styleHash":"199ab76c","styleMapHash":{"normal":"#icon-1716-C2185B-nodesc-normal","highlight":"#icon-1716-C2185B-nodesc-highlight"},"icon-scale":1,"icon":"images/icon-1.png","label-scale":0}},
{"type":"Feature","geometry":{"type":"Point","coordinates":[103.7475018,1.3973289,0]},"properties":{"name":"NS5 Yew Tee","styleUrl":"#icon-1899-C2185B-nodesc","styleHash":"-3608e166","styleMapHash":{"normal":"#icon-1899-C2185B-nodesc-normal","highlight":"#icon-1899-C2185B-nodesc-highlight"},"icon-scale":1,"icon-offset":[32,64],"icon":"images/icon-2.png","label-scale":0}},
{"type":"Feature","geometry":{"type":"Point","coordinates":[103.7620278,1.4252268,0]},"properties":{"name":"NS7 Kranji","styleUrl":"#icon-1899-C2185B-nodesc","styleHash":"-3608e166","styleMapHash":{"normal":"#icon-1899-C2185B-nodesc-normal","highlight":"#icon-1899-C2185B-nodesc-highlight"},"icon-scale":1,"icon-offset":[32,64],"icon":"images/icon-2.png","label-scale":0}},
{"type":"Feature","geometry":{"type":"Point","coordinates":[103.7741607,1.4325578,0]},"properties":{"name":"NS8 Marsiling ","styleUrl":"#icon-1899-C2185B-nodesc","styleHash":"-3608e166","styleMapHash":{"normal":"#icon-1899-C2185B-nodesc-normal","highlight":"#icon-1899-C2185B-nodesc-highlight"},"icon-scale":1,"icon-offset":[32,64],"icon":"images/icon-2.png","label-scale":0}},
{"type":"Feature","geometry":{"type":"Point","coordinates":[103.7863953,1.4369416,0]},"properties":{"name":"NS9 Woodlands","styleUrl":"#icon-1716-C2185B-nodesc","styleHash":"199ab76c","styleMapHash":{"normal":"#icon-1716-C2185B-nodesc-normal","highlight":"#icon-1716-C2185B-nodesc-highlight"},"icon-scale":1,"icon":"images/icon-1.png","label-scale":0}},
{"type":"Feature","geometry":{"type":"Point","coordinates":[103.800966,1.4406049,0]},"properties":{"name":"NS10 Admiralty","styleUrl":"#icon-1899-C2185B-nodesc","styleHash":"-3608e166","styleMapHash":{"normal":"#icon-1899-C2185B-nodesc-normal","highlight":"#icon-1899-C2185B-nodesc-highlight"},"icon-scale":1,"icon-offset":[32,64],"icon":"images/icon-2.png","label-scale":0}},
{"type":"Feature","geometry":{"type":"Point","coordinates":[103.820049,1.44909,0]},"properties":{"name":"NS11 Sembawang","styleUrl":"#icon-1899-C2185B-nodesc","styleHash":"-3608e166","styleMapHash":{"normal":"#icon-1899-C2185B-nodesc-normal","highlight":"#icon-1899-C2185B-nodesc-highlight"},"icon-scale":1,"icon-offset":[32,64],"icon":"images/icon-2.png","label-scale":0}},
{"type":"Feature","geometry":{"type":"Point","coordinates":[103.829575,1.443283,0]},"properties":{"name":"NS12 Canberra\n","styleUrl":"#icon-1899-C2185B","styleHash":"3d9316ec","styleMapHash":{"normal":"#icon-1899-C2185B-normal","highlight":"#icon-1899-C2185B-highlight"},"description":"Opened Nov 2019","icon-scale":1,"icon-offset":[32,64],"icon":"images/icon-2.png","label-scale":0}},
{"type":"Feature","geometry":{"type":"Point","coordinates":[103.835005,1.4294431,0]},"properties":{"name":"NS13 Yishun","styleUrl":"#icon-1899-C2185B-nodesc","styleHash":"-3608e166","styleMapHash":{"normal":"#icon-1899-C2185B-nodesc-normal","highlight":"#icon-1899-C2185B-nodesc-highlight"},"icon-scale":1,"icon-offset":[32,64],"icon":"images/icon-2.png","label-scale":0}},
{"type":"Feature","geometry":{"type":"Point","coordinates":[103.8329731,1.4173483,0]},"properties":{"name":"NS14 Khatib","styleUrl":"#icon-1899-C2185B-nodesc","styleHash":"-3608e166","styleMapHash":{"normal":"#icon-1899-C2185B-nodesc-normal","highlight":"#icon-1899-C2185B-nodesc-highlight"},"icon-scale":1,"icon-offset":[32,64],"icon":"images/icon-2.png","label-scale":0}},
{"type":"Feature","geometry":{"type":"Point","coordinates":[103.844934,1.3817217,0]},"properties":{"name":"NS15 Yio Chu Kang","styleUrl":"#icon-1899-C2185B-nodesc","styleHash":"-3608e166","styleMapHash":{"normal":"#icon-1899-C2185B-nodesc-normal","highlight":"#icon-1899-C2185B-nodesc-highlight"},"icon-scale":1,"icon-offset":[32,64],"icon":"images/icon-2.png","label-scale":0}},
{"type":"Feature","geometry":{"type":"Point","coordinates":[103.8495876,1.3699718,0]},"properties":{"name":"NS16 Ang Mo Kio","styleUrl":"#icon-1899-C2185B-nodesc","styleHash":"-3608e166","styleMapHash":{"normal":"#icon-1899-C2185B-nodesc-normal","highlight":"#icon-1899-C2185B-nodesc-highlight"},"icon-scale":1,"icon-offset":[32,64],"icon":"images/icon-2.png","label-scale":0}},
{"type":"Feature","geometry":{"type":"Point","coordinates":[103.8481737,1.3508449,0]},"properties":{"name":"NS17 Bishan","styleUrl":"#icon-1716-C2185B-nodesc","styleHash":"199ab76c","styleMapHash":{"normal":"#icon-1716-C2185B-nodesc-normal","highlight":"#icon-1716-C2185B-nodesc-highlight"},"icon-scale":1,"icon":"images/icon-1.png","label-scale":0}},
{"type":"Feature","geometry":{"type":"Point","coordinates":[103.8470762,1.3405397,0]},"properties":{"name":"NS18 Braddell\n","styleUrl":"#icon-1899-C2185B-nodesc","styleHash":"-3608e166","styleMapHash":{"normal":"#icon-1899-C2185B-nodesc-normal","highlight":"#icon-1899-C2185B-nodesc-highlight"},"icon-scale":1,"icon-offset":[32,64],"icon":"images/icon-2.png","label-scale":0}},
{"type":"Feature","geometry":{"type":"Point","coordinates":[103.8474252,1.3323297,0]},"properties":{"name":"NS19 Toa Payoh","styleUrl":"#icon-1899-C2185B-nodesc","styleHash":"-3608e166","styleMapHash":{"normal":"#icon-1899-C2185B-nodesc-normal","highlight":"#icon-1899-C2185B-nodesc-highlight"},"icon-scale":1,"icon-offset":[32,64],"icon":"images/icon-2.png","label-scale":0}},
{"type":"Feature","geometry":{"type":"Point","coordinates":[103.8433833,1.3200248,0]},"properties":{"name":"NS20 Novena ","styleUrl":"#icon-1899-C2185B-nodesc","styleHash":"-3608e166","styleMapHash":{"normal":"#icon-1899-C2185B-nodesc-normal","highlight":"#icon-1899-C2185B-nodesc-highlight"},"icon-scale":1,"icon-offset":[32,64],"icon":"images/icon-2.png","label-scale":0}},
{"type":"Feature","geometry":{"type":"Point","coordinates":[103.8383642,1.3125965,0]},"properties":{"name":"NS21 Newton\n","styleUrl":"#icon-1716-C2185B-nodesc","styleHash":"199ab76c","styleMapHash":{"normal":"#icon-1716-C2185B-nodesc-normal","highlight":"#icon-1716-C2185B-nodesc-highlight"},"icon-scale":1,"icon":"images/icon-1.png","label-scale":0}},
{"type":"Feature","geometry":{"type":"Point","coordinates":[103.831781,1.3040084,0]},"properties":{"name":"NS22 Orchard","styleUrl":"#icon-1716-C2185B-nodesc","styleHash":"199ab76c","styleMapHash":{"normal":"#icon-1716-C2185B-nodesc-normal","highlight":"#icon-1716-C2185B-nodesc-highlight"},"icon-scale":1,"icon":"images/icon-1.png","label-scale":0}},
{"type":"Feature","geometry":{"type":"Point","coordinates":[103.8384389,1.3004441,0]},"properties":{"name":"NS23 Somerset","styleUrl":"#icon-1899-C2185B-nodesc","styleHash":"-3608e166","styleMapHash":{"normal":"#icon-1899-C2185B-nodesc-normal","highlight":"#icon-1899-C2185B-nodesc-highlight"},"icon-scale":1,"icon-offset":[32,64],"icon":"images/icon-2.png","label-scale":0}},
{"type":"Feature","geometry":{"type":"Point","coordinates":[103.8460729,1.2988121,0]},"properties":{"name":"NS24 Dhoby Ghaut","styleUrl":"#icon-1716-C2185B-nodesc","styleHash":"199ab76c","styleMapHash":{"normal":"#icon-1716-C2185B-nodesc-normal","highlight":"#icon-1716-C2185B-nodesc-highlight"},"icon-scale":1,"icon":"images/icon-1.png","label-scale":0}},
{"type":"Feature","geometry":{"type":"Point","coordinates":[103.8522072,1.2931779,0]},"properties":{"name":"NS25 City Hall","styleUrl":"#icon-1716-C2185B-nodesc","styleHash":"199ab76c","styleMapHash":{"normal":"#icon-1716-C2185B-nodesc-normal","highlight":"#icon-1716-C2185B-nodesc-highlight"},"icon-scale":1,"icon":"images/icon-1.png","label-scale":0}},
{"type":"Feature","geometry":{"type":"Point","coordinates":[103.8513007,1.2842234,0]},"properties":{"name":"NS26 Raffles Place","styleUrl":"#icon-1716-C2185B-nodesc","styleHash":"199ab76c","styleMapHash":{"normal":"#icon-1716-C2185B-nodesc-normal","highlight":"#icon-1716-C2185B-nodesc-highlight"},"icon-scale":1,"icon":"images/icon-1.png","label-scale":0}},
{"type":"Feature","geometry":{"type":"Point","coordinates":[103.8545978,1.2764274,0]},"properties":{"name":"NS27 Marina Bay ","styleUrl":"#icon-1716-C2185B-nodesc","styleHash":"199ab76c","styleMapHash":{"normal":"#icon-1716-C2185B-nodesc-normal","highlight":"#icon-1716-C2185B-nodesc-highlight"},"icon-scale":1,"icon":"images/icon-1.png","label-scale":0}},
{"type":"Feature","geometry":{"type":"Point","coordinates":[103.8635915,1.2713894,0]},"properties":{"name":"NS28 Marina South Pier ","styleUrl":"#icon-1899-C2185B","styleHash":"3d9316ec","styleMapHash":{"normal":"#icon-1899-C2185B-normal","highlight":"#icon-1899-C2185B-highlight"},"description":"Opened Nov 2014","icon-scale":1,"icon-offset":[32,64],"icon":"images/icon-2.png","label-scale":0}},
{"type":"Feature","geometry":{"type":"Point","coordinates":[103.9493534,1.3731912,0]},"properties":{"name":"EW1 Pasir Ris","styleUrl":"#icon-1899-0F9D58-nodesc","styleHash":"-5ed8c0e4","styleMapHash":{"normal":"#icon-1899-0F9D58-nodesc-normal","highlight":"#icon-1899-0F9D58-nodesc-highlight"},"icon-scale":1,"icon-offset":[32,64],"icon":"images/icon-3.png","label-scale":0}},
{"type":"Feature","geometry":{"type":"Point","coordinates":[103.9452213,1.3531941,0]},"properties":{"name":"EW2 Tampines\n","styleUrl":"#icon-1716-0F9D58-nodesc","styleHash":"15b11d70","styleMapHash":{"normal":"#icon-1716-0F9D58-nodesc-normal","highlight":"#icon-1716-0F9D58-nodesc-highlight"},"icon-scale":1,"icon":"images/icon-4.png","label-scale":0}},
{"type":"Feature","geometry":{"type":"Point","coordinates":[103.9533534,1.3431616,0]},"properties":{"name":"EW3 Simei\n","styleUrl":"#icon-1899-0F9D58-nodesc","styleHash":"-5ed8c0e4","styleMapHash":{"normal":"#icon-1899-0F9D58-nodesc-normal","highlight":"#icon-1899-0F9D58-nodesc-highlight"},"icon-scale":1,"icon-offset":[32,64],"icon":"images/icon-3.png","label-scale":0}},
{"type":"Feature","geometry":{"type":"Point","coordinates":[103.9464897,1.3272444,0]},"properties":{"name":"EW4/CG Tanah Merah","styleUrl":"#icon-1716-0F9D58-nodesc","styleHash":"15b11d70","styleMapHash":{"normal":"#icon-1716-0F9D58-nodesc-normal","highlight":"#icon-1716-0F9D58-nodesc-highlight"},"icon-scale":1,"icon":"images/icon-4.png","label-scale":0}},
{"type":"Feature","geometry":{"type":"Point","coordinates":[103.9301725,1.3240113,0]},"properties":{"name":"EW5 Bedok","styleUrl":"#icon-1899-0F9D58-nodesc","styleHash":"-5ed8c0e4","styleMapHash":{"normal":"#icon-1899-0F9D58-nodesc-normal","highlight":"#icon-1899-0F9D58-nodesc-highlight"},"icon-scale":1,"icon-offset":[32,64],"icon":"images/icon-3.png","label-scale":0}},
{"type":"Feature","geometry":{"type":"Point","coordinates":[103.9129039,1.3209998,0]},"properties":{"name":"EW6 Kembangan","styleUrl":"#icon-1899-0F9D58-nodesc","styleHash":"-5ed8c0e4","styleMapHash":{"normal":"#icon-1899-0F9D58-nodesc-normal","highlight":"#icon-1899-0F9D58-nodesc-highlight"},"icon-scale":1,"icon-offset":[32,64],"icon":"images/icon-3.png","label-scale":0}},
{"type":"Feature","geometry":{"type":"Point","coordinates":[103.9028883,1.3197342,0]},"properties":{"name":"EW7 Eunos","styleUrl":"#icon-1899-0F9D58-nodesc","styleHash":"-5ed8c0e4","styleMapHash":{"normal":"#icon-1899-0F9D58-nodesc-normal","highlight":"#icon-1899-0F9D58-nodesc-highlight"},"icon-scale":1,"icon-offset":[32,64],"icon":"images/icon-3.png","label-scale":0}},
{"type":"Feature","geometry":{"type":"Point","coordinates":[103.8928647,1.3181607,0]},"properties":{"name":"EW8 Paya Lebar","styleUrl":"#icon-1716-0F9D58-nodesc","styleHash":"15b11d70","styleMapHash":{"normal":"#icon-1716-0F9D58-nodesc-normal","highlight":"#icon-1716-0F9D58-nodesc-highlight"},"icon-scale":1,"icon":"images/icon-4.png","label-scale":0}},
{"type":"Feature","geometry":{"type":"Point","coordinates":[103.8828099,1.3164178,0]},"properties":{"name":"EW9 Aljunied","styleUrl":"#icon-1899-0F9D58-nodesc","styleHash":"-5ed8c0e4","styleMapHash":{"normal":"#icon-1899-0F9D58-nodesc-normal","highlight":"#icon-1899-0F9D58-nodesc-highlight"},"icon-scale":1,"icon-offset":[32,64],"icon":"images/icon-3.png","label-scale":0}},
{"type":"Feature","geometry":{"type":"Point","coordinates":[103.8713507,1.3114784,0]},"properties":{"name":"EW10 Kallang","styleUrl":"#icon-1899-0F9D58-nodesc","styleHash":"-5ed8c0e4","styleMapHash":{"normal":"#icon-1899-0F9D58-nodesc-normal","highlight":"#icon-1899-0F9D58-nodesc-highlight"},"icon-scale":1,"icon-offset":[32,64],"icon":"images/icon-3.png","label-scale":0}},
{"type":"Feature","geometry":{"type":"Point","coordinates":[103.862848,1.3074261,0]},"properties":{"name":"EW11 Lavender","styleUrl":"#icon-1899-0F9D58-nodesc","styleHash":"-5ed8c0e4","styleMapHash":{"normal":"#icon-1899-0F9D58-nodesc-normal","highlight":"#icon-1899-0F9D58-nodesc-highlight"},"icon-scale":1,"icon-offset":[32,64],"icon":"images/icon-3.png","label-scale":0}},
{"type":"Feature","geometry":{"type":"Point","coordinates":[103.8558586,1.3002994,0]},"properties":{"name":"EW12 Bugis","styleUrl":"#icon-1716-0F9D58-nodesc","styleHash":"15b11d70","styleMapHash":{"normal":"#icon-1716-0F9D58-nodesc-normal","highlight":"#icon-1716-0F9D58-nodesc-highlight"},"icon-scale":1,"icon":"images/icon-4.png","label-scale":0}},
{"type":"Feature","geometry":{"type":"Point","coordinates":[103.8523252,1.2931779,0]},"properties":{"name":"EW13 City Hall","styleUrl":"#icon-1716-0F9D58-nodesc","styleHash":"15b11d70","styleMapHash":{"normal":"#icon-1716-0F9D58-nodesc-normal","highlight":"#icon-1716-0F9D58-nodesc-highlight"},"icon-scale":1,"icon":"images/icon-4.png","label-scale":0}},
{"type":"Feature","geometry":{"type":"Point","coordinates":[103.8513839,1.2842234,0]},"properties":{"name":"EW14 Raffles Place","styleUrl":"#icon-1716-0F9D58-nodesc","styleHash":"15b11d70","styleMapHash":{"normal":"#icon-1716-0F9D58-nodesc-normal","highlight":"#icon-1716-0F9D58-nodesc-highlight"},"icon-scale":1,"icon":"images/icon-4.png","label-scale":0}},
{"type":"Feature","geometry":{"type":"Point","coordinates":[103.8467924,1.2763419,0]},"properties":{"name":"EW15 Tanjong Pagar","styleUrl":"#icon-1899-0F9D58-nodesc","styleHash":"-5ed8c0e4","styleMapHash":{"normal":"#icon-1899-0F9D58-nodesc-normal","highlight":"#icon-1899-0F9D58-nodesc-highlight"},"icon-scale":1,"icon-offset":[32,64],"icon":"images/icon-3.png","label-scale":0}},
{"type":"Feature","geometry":{"type":"Point","coordinates":[103.8390568,1.2814559,0]},"properties":{"name":"EW16 Outram Park","styleUrl":"#icon-1716-0F9D58-nodesc","styleHash":"15b11d70","styleMapHash":{"normal":"#icon-1716-0F9D58-nodesc-normal","highlight":"#icon-1716-0F9D58-nodesc-highlight"},"icon-scale":1,"icon":"images/icon-4.png","label-scale":0}},
{"type":"Feature","geometry":{"type":"Point","coordinates":[103.8270314,1.2861264,0]},"properties":{"name":"EW17 Tiong Bahru","styleUrl":"#icon-1899-0F9D58-nodesc","styleHash":"-5ed8c0e4","styleMapHash":{"normal":"#icon-1899-0F9D58-nodesc-normal","highlight":"#icon-1899-0F9D58-nodesc-highlight"},"icon-scale":1,"icon-offset":[32,64],"icon":"images/icon-3.png","label-scale":0}},
{"type":"Feature","geometry":{"type":"Point","coordinates":[103.8167982,1.2896415,0]},"properties":{"name":"EW18 Redhill\n","styleUrl":"#icon-1899-0F9D58-nodesc","styleHash":"-5ed8c0e4","styleMapHash":{"normal":"#icon-1899-0F9D58-nodesc-normal","highlight":"#icon-1899-0F9D58-nodesc-highlight"},"icon-scale":1,"icon-offset":[32,64],"icon":"images/icon-3.png","label-scale":0}},
{"type":"Feature","geometry":{"type":"Point","coordinates":[103.8059016,1.2948352,0]},"properties":{"name":"EW19 Queenstown\n","styleUrl":"#icon-1899-0F9D58-nodesc","styleHash":"-5ed8c0e4","styleMapHash":{"normal":"#icon-1899-0F9D58-nodesc-normal","highlight":"#icon-1899-0F9D58-nodesc-highlight"},"icon-scale":1,"icon-offset":[32,64],"icon":"images/icon-3.png","label-scale":0}},
{"type":"Feature","geometry":{"type":"Point","coordinates":[103.7983157,1.3023957,0]},"properties":{"name":"EW20 Commonwealth ","styleUrl":"#icon-1899-0F9D58-nodesc","styleHash":"-5ed8c0e4","styleMapHash":{"normal":"#icon-1899-0F9D58-nodesc-normal","highlight":"#icon-1899-0F9D58-nodesc-highlight"},"icon-scale":1,"icon-offset":[32,64],"icon":"images/icon-3.png","label-scale":0}},
{"type":"Feature","geometry":{"type":"Point","coordinates":[103.7901128,1.3072964,0]},"properties":{"name":"EW21 Buona Vista","styleUrl":"#icon-1716-0F9D58-nodesc","styleHash":"15b11d70","styleMapHash":{"normal":"#icon-1716-0F9D58-nodesc-normal","highlight":"#icon-1716-0F9D58-nodesc-highlight"},"icon-scale":1,"icon":"images/icon-4.png","label-scale":0}},
{"type":"Feature","geometry":{"type":"Point","coordinates":[103.7786068,1.3113926,0]},"properties":{"name":"EW22 Dover","styleUrl":"#icon-1899-0F9D58-nodesc","styleHash":"-5ed8c0e4","styleMapHash":{"normal":"#icon-1899-0F9D58-nodesc-normal","highlight":"#icon-1899-0F9D58-nodesc-highlight"},"icon-scale":1,"icon-offset":[32,64],"icon":"images/icon-3.png","label-scale":0}},
{"type":"Feature","geometry":{"type":"Point","coordinates":[103.7653304,1.3148607,0]},"properties":{"name":"EW23 Clementi","styleUrl":"#icon-1899-0F9D58-nodesc","styleHash":"-5ed8c0e4","styleMapHash":{"normal":"#icon-1899-0F9D58-nodesc-normal","highlight":"#icon-1899-0F9D58-nodesc-highlight"},"icon-scale":1,"icon-offset":[32,64],"icon":"images/icon-3.png","label-scale":0}},
{"type":"Feature","geometry":{"type":"Point","coordinates":[103.7420772,1.333132,0]},"properties":{"name":"EW24 Jurong East","styleUrl":"#icon-1716-0F9D58-nodesc","styleHash":"15b11d70","styleMapHash":{"normal":"#icon-1716-0F9D58-nodesc-normal","highlight":"#icon-1716-0F9D58-nodesc-highlight"},"icon-scale":1,"icon":"images/icon-4.png","label-scale":0}},
{"type":"Feature","geometry":{"type":"Point","coordinates":[103.7325924,1.3424249,0]},"properties":{"name":"EW25 Chinese Garden","styleUrl":"#icon-1899-0F9D58-nodesc","styleHash":"-5ed8c0e4","styleMapHash":{"normal":"#icon-1899-0F9D58-nodesc-normal","highlight":"#icon-1899-0F9D58-nodesc-highlight"},"icon-scale":1,"icon-offset":[32,64],"icon":"images/icon-3.png","label-scale":0}},
{"type":"Feature","geometry":{"type":"Point","coordinates":[103.7207754,1.344243,0]},"properties":{"name":"EW26 Lakeside","styleUrl":"#icon-1899-0F9D58-nodesc","styleHash":"-5ed8c0e4","styleMapHash":{"normal":"#icon-1899-0F9D58-nodesc-normal","highlight":"#icon-1899-0F9D58-nodesc-highlight"},"icon-scale":1,"icon-offset":[32,64],"icon":"images/icon-3.png","label-scale":0}},
{"type":"Feature","geometry":{"type":"Point","coordinates":[103.7058277,1.3385559,0]},"properties":{"name":"EW27 Boon Lay","styleUrl":"#icon-1899-0F9D58-nodesc","styleHash":"-5ed8c0e4","styleMapHash":{"normal":"#icon-1899-0F9D58-nodesc-normal","highlight":"#icon-1899-0F9D58-nodesc-highlight"},"icon-scale":1,"icon-offset":[32,64],"icon":"images/icon-3.png","label-scale":0}},
{"type":"Feature","geometry":{"type":"Point","coordinates":[103.6974089,1.3376018,0]},"properties":{"name":"EW28 Pioneer","styleUrl":"#icon-1899-0F9D58-nodesc","styleHash":"-5ed8c0e4","styleMapHash":{"normal":"#icon-1899-0F9D58-nodesc-normal","highlight":"#icon-1899-0F9D58-nodesc-highlight"},"icon-scale":1,"icon-offset":[32,64],"icon":"images/icon-3.png","label-scale":0}},
{"type":"Feature","geometry":{"type":"Point","coordinates":[103.6783209,1.3277353,0]},"properties":{"name":"EW29 Joo Koon","styleUrl":"#icon-1899-0F9D58-nodesc","styleHash":"-5ed8c0e4","styleMapHash":{"normal":"#icon-1899-0F9D58-nodesc-normal","highlight":"#icon-1899-0F9D58-nodesc-highlight"},"icon-scale":1,"icon-offset":[32,64],"icon":"images/icon-3.png","label-scale":0}},
{"type":"Feature","geometry":{"type":"Point","coordinates":[103.6608303,1.3197555,0]},"properties":{"name":"EW30 Gul Circle ","styleUrl":"#icon-1899-0F9D58-nodesc","styleHash":"-5ed8c0e4","styleMapHash":{"normal":"#icon-1899-0F9D58-nodesc-normal","highlight":"#icon-1899-0F9D58-nodesc-highlight"},"icon-scale":1,"icon-offset":[32,64],"icon":"images/icon-3.png","label-scale":0}},
{"type":"Feature","geometry":{"type":"Point","coordinates":[103.6490755,1.3210266,0]},"properties":{"name":"EW31 Tuas Crescent ","styleUrl":"#icon-1899-0F9D58-nodesc","styleHash":"-5ed8c0e4","styleMapHash":{"normal":"#icon-1899-0F9D58-nodesc-normal","highlight":"#icon-1899-0F9D58-nodesc-highlight"},"icon-scale":1,"icon-offset":[32,64],"icon":"images/icon-3.png","label-scale":0}},
{"type":"Feature","geometry":{"type":"Point","coordinates":[103.6396141,1.3299891,0]},"properties":{"name":"EW32 Tuas West Road ","styleUrl":"#icon-1899-0F9D58-nodesc","styleHash":"-5ed8c0e4","styleMapHash":{"normal":"#icon-1899-0F9D58-nodesc-normal","highlight":"#icon-1899-0F9D58-nodesc-highlight"},"icon-scale":1,"icon-offset":[32,64],"icon":"images/icon-3.png","label-scale":0}},
{"type":"Feature","geometry":{"type":"Point","coordinates":[103.6368206,1.3404966,0]},"properties":{"name":"EW33 Tuas Link ","styleUrl":"#icon-1899-0F9D58-nodesc","styleHash":"-5ed8c0e4","styleMapHash":{"normal":"#icon-1899-0F9D58-nodesc-normal","highlight":"#icon-1899-0F9D58-nodesc-highlight"},"icon-scale":1,"icon-offset":[32,64],"icon":"images/icon-3.png","label-scale":0}},
{"type":"Feature","geometry":{"type":"Point","coordinates":[103.9614807,1.3344041,0]},"properties":{"name":"CG1 Expo","styleUrl":"#icon-1716-0F9D58-nodesc","styleHash":"15b11d70","styleMapHash":{"normal":"#icon-1716-0F9D58-nodesc-normal","highlight":"#icon-1716-0F9D58-nodesc-highlight"},"icon-scale":1,"icon":"images/icon-4.png","label-scale":0}},
{"type":"Feature","geometry":{"type":"Point","coordinates":[103.9883518,1.3572676,0]},"properties":{"name":"CG2 Changi Airport","styleUrl":"#icon-1899-0F9D58-nodesc","styleHash":"-5ed8c0e4","styleMapHash":{"normal":"#icon-1899-0F9D58-nodesc-normal","highlight":"#icon-1899-0F9D58-nodesc-highlight"},"icon-scale":1,"icon-offset":[32,64],"icon":"images/icon-3.png","label-scale":0}},
{"type":"Feature","geometry":{"type":"Point","coordinates":[103.8214511,1.2656121,0]},"properties":{"name":"NE1 HarbourFront","styleUrl":"#icon-1716-9C27B0-nodesc","styleHash":"-5ba23296","styleMapHash":{"normal":"#icon-1716-9C27B0-nodesc-normal","highlight":"#icon-1716-9C27B0-nodesc-highlight"},"icon-scale":1,"icon":"images/icon-5.png","label-scale":0}},
{"type":"Feature","geometry":{"type":"Point","coordinates":[103.8393274,1.279835,0]},"properties":{"name":"NE3 Outram Park\n","styleUrl":"#icon-1716-9C27B0-nodesc","styleHash":"-5ba23296","styleMapHash":{"normal":"#icon-1716-9C27B0-nodesc-normal","highlight":"#icon-1716-9C27B0-nodesc-highlight"},"icon-scale":1,"icon":"images/icon-5.png","label-scale":0}},
{"type":"Feature","geometry":{"type":"Point","coordinates":[103.8435939,1.2844913,0]},"properties":{"name":"NE4 Chinatown ","styleUrl":"#icon-1716-9C27B0-nodesc","styleHash":"-5ba23296","styleMapHash":{"normal":"#icon-1716-9C27B0-nodesc-normal","highlight":"#icon-1716-9C27B0-nodesc-highlight"},"icon-scale":1,"icon":"images/icon-5.png","label-scale":0}},
{"type":"Feature","geometry":{"type":"Point","coordinates":[103.84656,1.28839,0]},"properties":{"name":"NE5 Clarke Quay","styleUrl":"#icon-1899-9C27B0-nodesc","styleHash":"5fbd718","styleMapHash":{"normal":"#icon-1899-9C27B0-nodesc-normal","highlight":"#icon-1899-9C27B0-nodesc-highlight"},"icon-scale":1,"icon-offset":[32,64],"icon":"images/icon-6.png","label-scale":0}},
{"type":"Feature","geometry":{"type":"Point","coordinates":[103.8454265,1.299697,0]},"properties":{"name":"NE6 Dhoby Ghaut","styleUrl":"#icon-1716-9C27B0-nodesc","styleHash":"-5ba23296","styleMapHash":{"normal":"#icon-1716-9C27B0-nodesc-normal","highlight":"#icon-1716-9C27B0-nodesc-highlight"},"icon-scale":1,"icon":"images/icon-5.png","label-scale":0}},
{"type":"Feature","geometry":{"type":"Point","coordinates":[103.8494066,1.3066479,0]},"properties":{"name":"NE7 Little India ","styleUrl":"#icon-1716-9C27B0-nodesc","styleHash":"-5ba23296","styleMapHash":{"normal":"#icon-1716-9C27B0-nodesc-normal","highlight":"#icon-1716-9C27B0-nodesc-highlight"},"icon-scale":1,"icon":"images/icon-5.png","label-scale":0}},
{"type":"Feature","geometry":{"type":"Point","coordinates":[103.8540459,1.3123439,0]},"properties":{"name":"NE8 Farrer Park\n","styleUrl":"#icon-1899-9C27B0-nodesc","styleHash":"5fbd718","styleMapHash":{"normal":"#icon-1899-9C27B0-nodesc-normal","highlight":"#icon-1899-9C27B0-nodesc-highlight"},"icon-scale":1,"icon-offset":[32,64],"icon":"images/icon-6.png","label-scale":0}},
{"type":"Feature","geometry":{"type":"Point","coordinates":[103.8617088,1.3198552,0]},"properties":{"name":"NE9 Boon Keng","styleUrl":"#icon-1899-9C27B0-nodesc","styleHash":"5fbd718","styleMapHash":{"normal":"#icon-1899-9C27B0-nodesc-normal","highlight":"#icon-1899-9C27B0-nodesc-highlight"},"icon-scale":1,"icon-offset":[32,64],"icon":"images/icon-6.png","label-scale":0}},
{"type":"Feature","geometry":{"type":"Point","coordinates":[103.8690902,1.331155,0]},"properties":{"name":"NE10 Potong Pasir","styleUrl":"#icon-1899-9C27B0-nodesc","styleHash":"5fbd718","styleMapHash":{"normal":"#icon-1899-9C27B0-nodesc-normal","highlight":"#icon-1899-9C27B0-nodesc-highlight"},"icon-scale":1,"icon-offset":[32,64],"icon":"images/icon-6.png","label-scale":0}},
{"type":"Feature","geometry":{"type":"Point","coordinates":[103.8707373,1.3391274,0]},"properties":{"name":"NE11 Woodleigh","styleUrl":"#icon-1899-9C27B0-nodesc","styleHash":"5fbd718","styleMapHash":{"normal":"#icon-1899-9C27B0-nodesc-normal","highlight":"#icon-1899-9C27B0-nodesc-highlight"},"icon-scale":1,"icon-offset":[32,64],"icon":"images/icon-6.png","label-scale":0}},
{"type":"Feature","geometry":{"type":"Point","coordinates":[103.8735812,1.349578,0]},"properties":{"name":"NE12 Serangoon","styleUrl":"#icon-1716-9C27B0-nodesc","styleHash":"-5ba23296","styleMapHash":{"normal":"#icon-1716-9C27B0-nodesc-normal","highlight":"#icon-1716-9C27B0-nodesc-highlight"},"icon-scale":1,"icon":"images/icon-5.png","label-scale":0}},
{"type":"Feature","geometry":{"type":"Point","coordinates":[103.8848516,1.3600195,0]},"properties":{"name":"NE13 Kovan","styleUrl":"#icon-1899-9C27B0-nodesc","styleHash":"5fbd718","styleMapHash":{"normal":"#icon-1899-9C27B0-nodesc-normal","highlight":"#icon-1899-9C27B0-nodesc-highlight"},"icon-scale":1,"icon-offset":[32,64],"icon":"images/icon-6.png","label-scale":0}},
{"type":"Feature","geometry":{"type":"Point","coordinates":[103.8925439,1.3713312,0]},"properties":{"name":"NE14 Hougang ","styleUrl":"#icon-1899-9C27B0-nodesc","styleHash":"5fbd718","styleMapHash":{"normal":"#icon-1899-9C27B0-nodesc-normal","highlight":"#icon-1899-9C27B0-nodesc-highlight"},"icon-scale":1,"icon-offset":[32,64],"icon":"images/icon-6.png","label-scale":0}},
{"type":"Feature","geometry":{"type":"Point","coordinates":[103.8931544,1.3829749,0]},"properties":{"name":"NE15 Buangkok ","styleUrl":"#icon-1899-9C27B0-nodesc","styleHash":"5fbd718","styleMapHash":{"normal":"#icon-1899-9C27B0-nodesc-normal","highlight":"#icon-1899-9C27B0-nodesc-highlight"},"icon-scale":1,"icon-offset":[32,64],"icon":"images/icon-6.png","label-scale":0}},
{"type":"Feature","geometry":{"type":"Point","coordinates":[103.8954533,1.3916609,0]},"properties":{"name":"NE16 Sengkang","styleUrl":"#icon-1716-9C27B0-nodesc","styleHash":"-5ba23296","styleMapHash":{"normal":"#icon-1716-9C27B0-nodesc-normal","highlight":"#icon-1716-9C27B0-nodesc-highlight"},"icon-scale":1,"icon":"images/icon-5.png","label-scale":0}},
{"type":"Feature","geometry":{"type":"Point","coordinates":[103.9023559,1.40517,0]},"properties":{"name":"NE17 Punggol","styleUrl":"#icon-1716-9C27B0-nodesc","styleHash":"-5ba23296","styleMapHash":{"normal":"#icon-1716-9C27B0-nodesc-normal","highlight":"#icon-1716-9C27B0-nodesc-highlight"},"icon-scale":1,"icon":"images/icon-5.png","label-scale":0}},
{"type":"Feature","geometry":{"type":"Point","coordinates":[103.8454936,1.2991016,0]},"properties":{"name":"CC1 Dhoby Ghaut","styleUrl":"#icon-1716-F9A825-nodesc","styleHash":"681ec4dc","styleMapHash":{"normal":"#icon-1716-F9A825-nodesc-normal","highlight":"#icon-1716-F9A825-nodesc-highlight"},"icon-scale":1,"icon":"images/icon-7.png","label-scale":0}},
{"type":"Feature","geometry":{"type":"Point","coordinates":[103.8506722,1.2968442,0]},"properties":{"name":"CC2 Bras Basah","styleUrl":"#icon-1899-F9A825-nodesc","styleHash":"52bb600a","styleMapHash":{"normal":"#icon-1899-F9A825-nodesc-normal","highlight":"#icon-1899-F9A825-nodesc-highlight"},"icon-scale":1,"icon-offset":[32,64],"icon":"images/icon-8.png","label-scale":0}},
{"type":"Feature","geometry":{"type":"Point","coordinates":[103.855353,1.2934908,0]},"properties":{"name":"CC3 Esplanade","styleUrl":"#icon-1899-F9A825-nodesc","styleHash":"52bb600a","styleMapHash":{"normal":"#icon-1899-F9A825-nodesc-normal","highlight":"#icon-1899-F9A825-nodesc-highlight"},"icon-scale":1,"icon-offset":[32,64],"icon":"images/icon-8.png","label-scale":0}},
{"type":"Feature","geometry":{"type":"Point","coordinates":[103.8611697,1.2931407,0]},"properties":{"name":"CC4 Promenade","styleUrl":"#icon-1716-F9A825-nodesc","styleHash":"681ec4dc","styleMapHash":{"normal":"#icon-1716-F9A825-nodesc-normal","highlight":"#icon-1716-F9A825-nodesc-highlight"},"icon-scale":1,"icon":"images/icon-7.png","label-scale":0}},
{"type":"Feature","geometry":{"type":"Point","coordinates":[103.8636638,1.2997236,0]},"properties":{"name":"CC5 Nicoll Highway ","styleUrl":"#icon-1899-F9A825-nodesc","styleHash":"52bb600a","styleMapHash":{"normal":"#icon-1899-F9A825-nodesc-normal","highlight":"#icon-1899-F9A825-nodesc-highlight"},"icon-scale":1,"icon-offset":[32,64],"icon":"images/icon-8.png","label-scale":0}},
{"type":"Feature","geometry":{"type":"Point","coordinates":[103.8754063,1.3027829,0]},"properties":{"name":"CC6 Stadium\n","styleUrl":"#icon-1899-F9A825-nodesc","styleHash":"52bb600a","styleMapHash":{"normal":"#icon-1899-F9A825-nodesc-normal","highlight":"#icon-1899-F9A825-nodesc-highlight"},"icon-scale":1,"icon-offset":[32,64],"icon":"images/icon-8.png","label-scale":0}},
{"type":"Feature","geometry":{"type":"Point","coordinates":[103.8829707,1.3064062,0]},"properties":{"name":"CC7 Mountbatten\n","styleUrl":"#icon-1899-F9A825-nodesc","styleHash":"52bb600a","styleMapHash":{"normal":"#icon-1899-F9A825-nodesc-normal","highlight":"#icon-1899-F9A825-nodesc-highlight"},"icon-scale":1,"icon-offset":[32,64],"icon":"images/icon-8.png","label-scale":0}},
{"type":"Feature","geometry":{"type":"Point","coordinates":[103.888814,1.30841,0]},"properties":{"name":"CC8 Dakota\n","styleUrl":"#icon-1899-F9A825-nodesc","styleHash":"52bb600a","styleMapHash":{"normal":"#icon-1899-F9A825-nodesc-normal","highlight":"#icon-1899-F9A825-nodesc-highlight"},"icon-scale":1,"icon-offset":[32,64],"icon":"images/icon-8.png","label-scale":0}},
{"type":"Feature","geometry":{"type":"Point","coordinates":[103.8921405,1.3176861,0]},"properties":{"name":"CC9 Paya Lebar","styleUrl":"#icon-1716-F9A825-nodesc","styleHash":"681ec4dc","styleMapHash":{"normal":"#icon-1716-F9A825-nodesc-normal","highlight":"#icon-1716-F9A825-nodesc-highlight"},"icon-scale":1,"icon":"images/icon-7.png","label-scale":0}},
{"type":"Feature","geometry":{"type":"Point","coordinates":[103.8903136,1.3268819,0]},"properties":{"name":"CC10 MacPherson","styleUrl":"#icon-1716-F9A825-nodesc","styleHash":"681ec4dc","styleMapHash":{"normal":"#icon-1716-F9A825-nodesc-normal","highlight":"#icon-1716-F9A825-nodesc-highlight"},"icon-scale":1,"icon":"images/icon-7.png","label-scale":0}},
{"type":"Feature","geometry":{"type":"Point","coordinates":[103.8877164,1.3358756,0]},"properties":{"name":"CC11 Tai Seng","styleUrl":"#icon-1899-F9A825-nodesc","styleHash":"52bb600a","styleMapHash":{"normal":"#icon-1899-F9A825-nodesc-normal","highlight":"#icon-1899-F9A825-nodesc-highlight"},"icon-scale":1,"icon-offset":[32,64],"icon":"images/icon-8.png","label-scale":0}},
{"type":"Feature","geometry":{"type":"Point","coordinates":[103.8796386,1.3428695,0]},"properties":{"name":"CC12 Bartley","styleUrl":"#icon-1899-F9A825-nodesc","styleHash":"52bb600a","styleMapHash":{"normal":"#icon-1899-F9A825-nodesc-normal","highlight":"#icon-1899-F9A825-nodesc-highlight"},"icon-scale":1,"icon-offset":[32,64],"icon":"images/icon-8.png","label-scale":0}},
{"type":"Feature","geometry":{"type":"Point","coordinates":[103.8722561,1.3506828,0]},"properties":{"name":"CC13 Serangoon","styleUrl":"#icon-1716-F9A825-nodesc","styleHash":"681ec4dc","styleMapHash":{"normal":"#icon-1716-F9A825-nodesc-normal","highlight":"#icon-1716-F9A825-nodesc-highlight"},"icon-scale":1,"icon":"images/icon-7.png","label-scale":0}},
{"type":"Feature","geometry":{"type":"Point","coordinates":[103.8649467,1.3514978,0]},"properties":{"name":"CC14 Lorong Chuan","styleUrl":"#icon-1899-F9A825-nodesc","styleHash":"52bb600a","styleMapHash":{"normal":"#icon-1899-F9A825-nodesc-normal","highlight":"#icon-1899-F9A825-nodesc-highlight"},"icon-scale":1,"icon-offset":[32,64],"icon":"images/icon-8.png","label-scale":0}},
{"type":"Feature","geometry":{"type":"Point","coordinates":[103.8495685,1.3512525,0]},"properties":{"name":"CC15 Bishan","styleUrl":"#icon-1716-F9A825-nodesc","styleHash":"681ec4dc","styleMapHash":{"normal":"#icon-1716-F9A825-nodesc-normal","highlight":"#icon-1716-F9A825-nodesc-highlight"},"icon-scale":1,"icon":"images/icon-7.png","label-scale":0}},
{"type":"Feature","geometry":{"type":"Point","coordinates":[103.8393522,1.3489498,0]},"properties":{"name":"CC16 Marymount","styleUrl":"#icon-1899-F9A825-nodesc","styleHash":"52bb600a","styleMapHash":{"normal":"#icon-1899-F9A825-nodesc-normal","highlight":"#icon-1899-F9A825-nodesc-highlight"},"icon-scale":1,"icon-offset":[32,64],"icon":"images/icon-8.png","label-scale":0}},
{"type":"Feature","geometry":{"type":"Point","coordinates":[103.8396809,1.3375953,0]},"properties":{"name":"CC17 Caldecott ","styleUrl":"#icon-1716-F9A825-nodesc","styleHash":"681ec4dc","styleMapHash":{"normal":"#icon-1716-F9A825-nodesc-normal","highlight":"#icon-1716-F9A825-nodesc-highlight"},"icon-scale":1,"icon":"images/icon-7.png","label-scale":0}},
{"type":"Feature","geometry":{"type":"Point","coordinates":[103.815026,1.3219899,0]},"properties":{"name":"CC19 Botanic Gardens ","styleUrl":"#icon-1716-F9A825-nodesc","styleHash":"681ec4dc","styleMapHash":{"normal":"#icon-1716-F9A825-nodesc-normal","highlight":"#icon-1716-F9A825-nodesc-highlight"},"icon-scale":1,"icon":"images/icon-7.png","label-scale":0}},
{"type":"Feature","geometry":{"type":"Point","coordinates":[103.807711,1.3175741,0]},"properties":{"name":"CC20 Farrer Road ","styleUrl":"#icon-1899-F9A825-nodesc","styleHash":"52bb600a","styleMapHash":{"normal":"#icon-1899-F9A825-nodesc-normal","highlight":"#icon-1899-F9A825-nodesc-highlight"},"icon-scale":1,"icon-offset":[32,64],"icon":"images/icon-8.png","label-scale":0}},
{"type":"Feature","geometry":{"type":"Point","coordinates":[103.795819,1.3122023,0]},"properties":{"name":"CC21 Holland Village ","styleUrl":"#icon-1899-F9A825-nodesc","styleHash":"52bb600a","styleMapHash":{"normal":"#icon-1899-F9A825-nodesc-normal","highlight":"#icon-1899-F9A825-nodesc-highlight"},"icon-scale":1,"icon-offset":[32,64],"icon":"images/icon-8.png","label-scale":0}},
{"type":"Feature","geometry":{"type":"Point","coordinates":[103.7905259,1.3065536,0]},"properties":{"name":"CC22 Buona Vista","styleUrl":"#icon-1716-F9A825-nodesc","styleHash":"681ec4dc","styleMapHash":{"normal":"#icon-1716-F9A825-nodesc-normal","highlight":"#icon-1716-F9A825-nodesc-highlight"},"icon-scale":1,"icon":"images/icon-7.png","label-scale":0}},
{"type":"Feature","geometry":{"type":"Point","coordinates":[103.7875947,1.2998113,0]},"properties":{"name":"CC23 one-north","styleUrl":"#icon-1899-F9A825-nodesc","styleHash":"52bb600a","styleMapHash":{"normal":"#icon-1899-F9A825-nodesc-normal","highlight":"#icon-1899-F9A825-nodesc-highlight"},"icon-scale":1,"icon-offset":[32,64],"icon":"images/icon-8.png","label-scale":0}},
{"type":"Feature","geometry":{"type":"Point","coordinates":[103.7844513,1.2935861,0]},"properties":{"name":"CC24 Kent Ridge ","styleUrl":"#icon-1899-F9A825-nodesc","styleHash":"52bb600a","styleMapHash":{"normal":"#icon-1899-F9A825-nodesc-normal","highlight":"#icon-1899-F9A825-nodesc-highlight"},"icon-scale":1,"icon-offset":[32,64],"icon":"images/icon-8.png","label-scale":0}},
{"type":"Feature","geometry":{"type":"Point","coordinates":[103.7816232,1.2827601,0]},"properties":{"name":"CC25 Haw Par Villa ","styleUrl":"#icon-1899-F9A825-nodesc","styleHash":"52bb600a","styleMapHash":{"normal":"#icon-1899-F9A825-nodesc-normal","highlight":"#icon-1899-F9A825-nodesc-highlight"},"icon-scale":1,"icon-offset":[32,64],"icon":"images/icon-8.png","label-scale":0}},
{"type":"Feature","geometry":{"type":"Point","coordinates":[103.7919037,1.2760684,0]},"properties":{"name":"CC26 Pasir Panjang ","styleUrl":"#icon-1899-F9A825-nodesc","styleHash":"52bb600a","styleMapHash":{"normal":"#icon-1899-F9A825-nodesc-normal","highlight":"#icon-1899-F9A825-nodesc-highlight"},"icon-scale":1,"icon-offset":[32,64],"icon":"images/icon-8.png","label-scale":0}},
{"type":"Feature","geometry":{"type":"Point","coordinates":[103.8025575,1.2721259,0]},"properties":{"name":"CC27 Labrador Park ","styleUrl":"#icon-1899-F9A825-nodesc","styleHash":"52bb600a","styleMapHash":{"normal":"#icon-1899-F9A825-nodesc-normal","highlight":"#icon-1899-F9A825-nodesc-highlight"},"icon-scale":1,"icon-offset":[32,64],"icon":"images/icon-8.png","label-scale":0}},
{"type":"Feature","geometry":{"type":"Point","coordinates":[103.809878,1.2707152,0]},"properties":{"name":"CC28 Telok Blangah","styleUrl":"#icon-1899-F9A825-nodesc","styleHash":"52bb600a","styleMapHash":{"normal":"#icon-1899-F9A825-nodesc-normal","highlight":"#icon-1899-F9A825-nodesc-highlight"},"icon-scale":1,"icon-offset":[32,64],"icon":"images/icon-8.png","label-scale":0}},
{"type":"Feature","geometry":{"type":"Point","coordinates":[103.8214538,1.265352,0]},"properties":{"name":"CC29 HarbourFront","styleUrl":"#icon-1716-F9A825-nodesc","styleHash":"681ec4dc","styleMapHash":{"normal":"#icon-1716-F9A825-nodesc-normal","highlight":"#icon-1716-F9A825-nodesc-highlight"},"icon-scale":1,"icon":"images/icon-7.png","label-scale":0}},
{"type":"Feature","geometry":{"type":"Point","coordinates":[103.8589551,1.2813386,0]},"properties":{"name":"CE1 Bayfront","styleUrl":"#icon-1716-F9A825-nodesc","styleHash":"681ec4dc","styleMapHash":{"normal":"#icon-1716-F9A825-nodesc-normal","highlight":"#icon-1716-F9A825-nodesc-highlight"},"icon-scale":1,"icon":"images/icon-7.png","label-scale":0}},
{"type":"Feature","geometry":{"type":"Point","coordinates":[103.8554561,1.2762022,0]},"properties":{"name":"CE2 Marina Bay ","styleUrl":"#icon-1716-F9A825-nodesc","styleHash":"681ec4dc","styleMapHash":{"normal":"#icon-1716-F9A825-nodesc-normal","highlight":"#icon-1716-F9A825-nodesc-highlight"},"icon-scale":1,"icon":"images/icon-7.png","label-scale":0}},
{"type":"Feature","geometry":{"type":"Point","coordinates":[103.761432,1.3786042,0]},"properties":{"name":"DT1 Bukit Panjang","styleUrl":"#icon-1716-01579B","styleHash":"1d364905","styleMapHash":{"normal":"#icon-1716-01579B-normal","highlight":"#icon-1716-01579B-highlight"},"description":"DTL2","icon-scale":1,"icon":"images/icon-9.png","label-scale":0}},
{"type":"Feature","geometry":{"type":"Point","coordinates":[103.7645794,1.3696324,0]},"properties":{"name":"DT2 Cashew ","styleUrl":"#icon-1899-01579B","styleHash":"-7039d6c4","styleMapHash":{"normal":"#icon-1899-01579B-normal","highlight":"#icon-1899-01579B-highlight"},"description":"DTL2","icon-scale":1,"icon-offset":[32,64],"icon":"images/icon-10.png","label-scale":0}},
{"type":"Feature","geometry":{"type":"Point","coordinates":[103.7670744,1.3622225,0]},"properties":{"name":"DT3 Hillview","styleUrl":"#icon-1899-01579B","styleHash":"-7039d6c4","styleMapHash":{"normal":"#icon-1899-01579B-normal","highlight":"#icon-1899-01579B-highlight"},"description":"DTL2","icon-scale":1,"icon-offset":[32,64],"icon":"images/icon-10.png","label-scale":0}},
{"type":"Feature","geometry":{"type":"Point","coordinates":[103.7757466,1.3415532,0]},"properties":{"name":"DT5 Beauty World","styleUrl":"#icon-1899-01579B","styleHash":"-7039d6c4","styleMapHash":{"normal":"#icon-1899-01579B-normal","highlight":"#icon-1899-01579B-highlight"},"description":"DTL2","icon-scale":1,"icon-offset":[32,64],"icon":"images/icon-10.png","label-scale":0}},
{"type":"Feature","geometry":{"type":"Point","coordinates":[103.7833535,1.3359887,0]},"properties":{"name":"DT6 King Albert Park ","styleUrl":"#icon-1899-01579B","styleHash":"-7039d6c4","styleMapHash":{"normal":"#icon-1899-01579B-normal","highlight":"#icon-1899-01579B-highlight"},"description":"DTL2","icon-scale":1,"icon-offset":[32,64],"icon":"images/icon-10.png","label-scale":0}},
{"type":"Feature","geometry":{"type":"Point","coordinates":[103.7969066,1.3310274,0]},"properties":{"name":"DT7 Sixth Avenue","styleUrl":"#icon-1899-01579B","styleHash":"-7039d6c4","styleMapHash":{"normal":"#icon-1899-01579B-normal","highlight":"#icon-1899-01579B-highlight"},"description":"DTL2","icon-scale":1,"icon-offset":[32,64],"icon":"images/icon-10.png","label-scale":0}},
{"type":"Feature","geometry":{"type":"Point","coordinates":[103.8079395,1.3257192,0]},"properties":{"name":"DT8 Tan Kah Kee","styleUrl":"#icon-1899-01579B","styleHash":"-7039d6c4","styleMapHash":{"normal":"#icon-1899-01579B-normal","highlight":"#icon-1899-01579B-highlight"},"description":"DTL2","icon-scale":1,"icon-offset":[32,64],"icon":"images/icon-10.png","label-scale":0}},
{"type":"Feature","geometry":{"type":"Point","coordinates":[103.8154928,1.3226093,0]},"properties":{"name":"DT9 Botanic Gardens ","styleUrl":"#icon-1716-01579B","styleHash":"1d364905","styleMapHash":{"normal":"#icon-1716-01579B-normal","highlight":"#icon-1716-01579B-highlight"},"description":"DTL2","icon-scale":1,"icon":"images/icon-9.png","label-scale":0}},
{"type":"Feature","geometry":{"type":"Point","coordinates":[103.8261197,1.3200416,0]},"properties":{"name":"DT10 Stevens","styleUrl":"#icon-1716-01579B","styleHash":"1d364905","styleMapHash":{"normal":"#icon-1716-01579B-normal","highlight":"#icon-1716-01579B-highlight"},"description":"DTL2","icon-scale":1,"icon":"images/icon-9.png","label-scale":0}},
{"type":"Feature","geometry":{"type":"Point","coordinates":[103.8380316,1.3137871,0]},"properties":{"name":"DT11 Newton ","styleUrl":"#icon-1716-01579B","styleHash":"1d364905","styleMapHash":{"normal":"#icon-1716-01579B-normal","highlight":"#icon-1716-01579B-highlight"},"description":"DTL2","icon-scale":1,"icon":"images/icon-9.png","label-scale":0}},
{"type":"Feature","geometry":{"type":"Point","coordinates":[103.8494066,1.3066479,0]},"properties":{"name":"DT12 Little India ","styleUrl":"#icon-1716-01579B","styleHash":"1d364905","styleMapHash":{"normal":"#icon-1716-01579B-normal","highlight":"#icon-1716-01579B-highlight"},"description":"DTL2","icon-scale":1,"icon":"images/icon-9.png","label-scale":0}},
{"type":"Feature","geometry":{"type":"Point","coordinates":[103.8525596,1.3035362,0]},"properties":{"name":"DT13 Rochor ","styleUrl":"#icon-1899-01579B","styleHash":"-7039d6c4","styleMapHash":{"normal":"#icon-1899-01579B-normal","highlight":"#icon-1899-01579B-highlight"},"description":"DTL2","icon-scale":1,"icon-offset":[32,64],"icon":"images/icon-10.png","label-scale":0}},
{"type":"Feature","geometry":{"type":"Point","coordinates":[103.856564,1.3000768,0]},"properties":{"name":"DT14 Bugis","styleUrl":"#icon-1716-01579B","styleHash":"1d364905","styleMapHash":{"normal":"#icon-1716-01579B-normal","highlight":"#icon-1716-01579B-highlight"},"description":"DTL1","icon-scale":1,"icon":"images/icon-9.png","label-scale":0}},
{"type":"Feature","geometry":{"type":"Point","coordinates":[103.8610785,1.2931461,0]},"properties":{"name":"DT15 Promenade","styleUrl":"#icon-1716-01579B","styleHash":"1d364905","styleMapHash":{"normal":"#icon-1716-01579B-normal","highlight":"#icon-1716-01579B-highlight"},"description":"DTL1","icon-scale":1,"icon":"images/icon-9.png","label-scale":0}},
{"type":"Feature","geometry":{"type":"Point","coordinates":[103.8589551,1.2813386,0]},"properties":{"name":"DT16 Bayfront","styleUrl":"#icon-1716-01579B","styleHash":"1d364905","styleMapHash":{"normal":"#icon-1716-01579B-normal","highlight":"#icon-1716-01579B-highlight"},"description":"DTL1","icon-scale":1,"icon":"images/icon-9.png","label-scale":0}},
{"type":"Feature","geometry":{"type":"Point","coordinates":[103.8528128,1.2794576,0]},"properties":{"name":"DT17 Downtown","styleUrl":"#icon-1899-01579B","styleHash":"-7039d6c4","styleMapHash":{"normal":"#icon-1899-01579B-normal","highlight":"#icon-1899-01579B-highlight"},"description":"DTL1","icon-scale":1,"icon-offset":[32,64],"icon":"images/icon-10.png","label-scale":0}},
{"type":"Feature","geometry":{"type":"Point","coordinates":[103.8485947,1.282221,0]},"properties":{"name":"DT18 Telok Ayer","styleUrl":"#icon-1899-01579B","styleHash":"-7039d6c4","styleMapHash":{"normal":"#icon-1899-01579B-normal","highlight":"#icon-1899-01579B-highlight"},"description":"DTL1","icon-scale":1,"icon-offset":[32,64],"icon":"images/icon-10.png","label-scale":0}},
{"type":"Feature","geometry":{"type":"Point","coordinates":[103.8439748,1.2850035,0]},"properties":{"name":"DT19 Chinatown ","styleUrl":"#icon-1716-01579B","styleHash":"1d364905","styleMapHash":{"normal":"#icon-1716-01579B-normal","highlight":"#icon-1716-01579B-highlight"},"description":"DTL1","icon-scale":1,"icon":"images/icon-9.png","label-scale":0}},
{"type":"Feature","geometry":{"type":"Point","coordinates":[103.8441101,1.2923729,0]},"properties":{"name":"DT20 Fort Canning","styleUrl":"#icon-1899-01579B","styleHash":"-7039d6c4","styleMapHash":{"normal":"#icon-1899-01579B-normal","highlight":"#icon-1899-01579B-highlight"},"description":"DTL3","icon-scale":1,"icon-offset":[32,64],"icon":"images/icon-10.png","label-scale":0}},
{"type":"Feature","geometry":{"type":"Point","coordinates":[103.849973,1.2984553,0]},"properties":{"name":"DT21 Bencoolen ","styleUrl":"#icon-1899-01579B","styleHash":"-7039d6c4","styleMapHash":{"normal":"#icon-1899-01579B-normal","highlight":"#icon-1899-01579B-highlight"},"description":"DTL3","icon-scale":1,"icon-offset":[32,64],"icon":"images/icon-10.png","label-scale":0}},
{"type":"Feature","geometry":{"type":"Point","coordinates":[103.8554325,1.3055083,0]},"properties":{"name":"DT22 Jalan Besar ","styleUrl":"#icon-1899-01579B","styleHash":"-7039d6c4","styleMapHash":{"normal":"#icon-1899-01579B-normal","highlight":"#icon-1899-01579B-highlight"},"description":"DTL3","icon-scale":1,"icon-offset":[32,64],"icon":"images/icon-10.png","label-scale":0}},
{"type":"Feature","geometry":{"type":"Point","coordinates":[103.8630388,1.3135133,0]},"properties":{"name":"DT23 Bendemeer ","styleUrl":"#icon-1899-01579B","styleHash":"-7039d6c4","styleMapHash":{"normal":"#icon-1899-01579B-normal","highlight":"#icon-1899-01579B-highlight"},"description":"DTL3","icon-scale":1,"icon-offset":[32,64],"icon":"images/icon-10.png","label-scale":0}},
{"type":"Feature","geometry":{"type":"Point","coordinates":[103.8715269,1.3213339,0]},"properties":{"name":"DT24 Geylang Bahru ","styleUrl":"#icon-1899-01579B","styleHash":"-7039d6c4","styleMapHash":{"normal":"#icon-1899-01579B-normal","highlight":"#icon-1899-01579B-highlight"},"description":"DTL3","icon-scale":1,"icon-offset":[32,64],"icon":"images/icon-10.png","label-scale":0}},
{"type":"Feature","geometry":{"type":"Point","coordinates":[103.8833045,1.3268461,0]},"properties":{"name":"DT25 Mattar ","styleUrl":"#icon-1899-01579B","styleHash":"-7039d6c4","styleMapHash":{"normal":"#icon-1899-01579B-normal","highlight":"#icon-1899-01579B-highlight"},"description":"DTL3","icon-scale":1,"icon-offset":[32,64],"icon":"images/icon-10.png","label-scale":0}},
{"type":"Feature","geometry":{"type":"Point","coordinates":[103.8901527,1.3265118,0]},"properties":{"name":"DT26 MacPherson","styleUrl":"#icon-1716-01579B","styleHash":"1d364905","styleMapHash":{"normal":"#icon-1716-01579B-normal","highlight":"#icon-1716-01579B-highlight"},"description":"DTL3","icon-scale":1,"icon":"images/icon-9.png","label-scale":0}},
{"type":"Feature","geometry":{"type":"Point","coordinates":[103.8989327,1.3299231,0]},"properties":{"name":"DT27 Ubi","styleUrl":"#icon-1899-01579B","styleHash":"-7039d6c4","styleMapHash":{"normal":"#icon-1899-01579B-normal","highlight":"#icon-1899-01579B-highlight"},"description":"DTL3","icon-scale":1,"icon-offset":[32,64],"icon":"images/icon-10.png","label-scale":0}},
{"type":"Feature","geometry":{"type":"Point","coordinates":[103.908965,1.3349196,0]},"properties":{"name":"DT28 Kaki Bukit ","styleUrl":"#icon-1899-01579B","styleHash":"-7039d6c4","styleMapHash":{"normal":"#icon-1899-01579B-normal","highlight":"#icon-1899-01579B-highlight"},"description":"DTL3","icon-scale":1,"icon-offset":[32,64],"icon":"images/icon-10.png","label-scale":0}},
{"type":"Feature","geometry":{"type":"Point","coordinates":[103.9182708,1.3346756,0]},"properties":{"name":"DT29 Bedok North ","styleUrl":"#icon-1899-01579B","styleHash":"-7039d6c4","styleMapHash":{"normal":"#icon-1899-01579B-normal","highlight":"#icon-1899-01579B-highlight"},"description":"DTL3","icon-scale":1,"icon-offset":[32,64],"icon":"images/icon-10.png","label-scale":0}},
{"type":"Feature","geometry":{"type":"Point","coordinates":[103.9330916,1.3365418,0]},"properties":{"name":"DT30 Bedok Reservoir ","styleUrl":"#icon-1899-01579B","styleHash":"-7039d6c4","styleMapHash":{"normal":"#icon-1899-01579B-normal","highlight":"#icon-1899-01579B-highlight"},"description":"DTL3","icon-scale":1,"icon-offset":[32,64],"icon":"images/icon-10.png","label-scale":0}},
{"type":"Feature","geometry":{"type":"Point","coordinates":[103.9382436,1.345508,0]},"properties":{"name":"DT31 Tampines West ","styleUrl":"#icon-1899-01579B","styleHash":"-7039d6c4","styleMapHash":{"normal":"#icon-1899-01579B-normal","highlight":"#icon-1899-01579B-highlight"},"description":"DTL3","icon-scale":1,"icon-offset":[32,64],"icon":"images/icon-10.png","label-scale":0}},
{"type":"Feature","geometry":{"type":"Point","coordinates":[103.9427775,1.3550565,0]},"properties":{"name":"DT32 Tampines","styleUrl":"#icon-1716-01579B","styleHash":"1d364905","styleMapHash":{"normal":"#icon-1716-01579B-normal","highlight":"#icon-1716-01579B-highlight"},"description":"DTL3","icon-scale":1,"icon":"images/icon-9.png","label-scale":0}},
{"type":"Feature","geometry":{"type":"Point","coordinates":[103.9546993,1.3561749,0]},"properties":{"name":"DT33 Tampines East ","styleUrl":"#icon-1899-01579B","styleHash":"-7039d6c4","styleMapHash":{"normal":"#icon-1899-01579B-normal","highlight":"#icon-1899-01579B-highlight"},"description":"DTL3","icon-scale":1,"icon-offset":[32,64],"icon":"images/icon-10.png","label-scale":0}},
{"type":"Feature","geometry":{"type":"Point","coordinates":[103.9613335,1.3417074,0]},"properties":{"name":"DT34 Upper Changi ","styleUrl":"#icon-1899-01579B","styleHash":"-7039d6c4","styleMapHash":{"normal":"#icon-1899-01579B-normal","highlight":"#icon-1899-01579B-highlight"},"description":"DTL3","icon-scale":1,"icon-offset":[32,64],"icon":"images/icon-10.png","label-scale":0}},
{"type":"Feature","geometry":{"type":"Point","coordinates":[103.9625697,1.3353265,0]},"properties":{"name":"DT35 Expo","styleUrl":"#icon-1716-01579B","styleHash":"1d364905","styleMapHash":{"normal":"#icon-1716-01579B-normal","highlight":"#icon-1716-01579B-highlight"},"description":"DTL3","icon-scale":1,"icon":"images/icon-9.png","label-scale":0}},
{"type":"Feature","geometry":{"type":"Point","coordinates":[103.7857075,1.4480925,0]},"properties":{"name":"TE1 Woodlands North ","styleUrl":"#icon-1899-795548","styleHash":"3f289537","styleMapHash":{"normal":"#icon-1899-795548-normal","highlight":"#icon-1899-795548-highlight"},"description":"TEL1","icon-scale":1,"icon-offset":[32,64],"icon":"images/icon-11.png","label-scale":0}},
{"type":"Feature","geometry":{"type":"Point","coordinates":[103.7879239,1.4370182,0]},"properties":{"name":"TE2 Woodlands\n","styleUrl":"#icon-1716-795548","styleHash":"-151307f5","styleMapHash":{"normal":"#icon-1716-795548-normal","highlight":"#icon-1716-795548-highlight"},"description":"TEL1","icon-scale":1,"icon":"images/icon-12.png","label-scale":0}},
{"type":"Feature","geometry":{"type":"Point","coordinates":[103.7931589,1.427555,0]},"properties":{"name":"TE3 Woodlands South","styleUrl":"#icon-1899-795548","styleHash":"3f289537","styleMapHash":{"normal":"#icon-1899-795548-normal","highlight":"#icon-1899-795548-highlight"},"description":"TEL1","icon-scale":1,"icon-offset":[32,64],"icon":"images/icon-11.png","label-scale":0}},
{"type":"Feature","geometry":{"type":"Point","coordinates":[103.8182697,1.3975751,0]},"properties":{"name":"TE4 Springleaf\n","styleUrl":"#icon-1899-795548","styleHash":"3f289537","styleMapHash":{"normal":"#icon-1899-795548-normal","highlight":"#icon-1899-795548-highlight"},"description":"TEL2","icon-scale":1,"icon-offset":[32,64],"icon":"images/icon-11.png","label-scale":0}},
{"type":"Feature","geometry":{"type":"Point","coordinates":[103.8368081,1.3843983,0]},"properties":{"name":"TE5 Lentor\n","styleUrl":"#icon-1899-795548","styleHash":"3f289537","styleMapHash":{"normal":"#icon-1899-795548-normal","highlight":"#icon-1899-795548-highlight"},"description":"TEL2","icon-scale":1,"icon-offset":[32,64],"icon":"images/icon-11.png","label-scale":0}},
{"type":"Feature","geometry":{"type":"Point","coordinates":[103.837026,1.3726456,0]},"properties":{"name":"TE6 Mayflower\n","styleUrl":"#icon-1899-795548","styleHash":"3f289537","styleMapHash":{"normal":"#icon-1899-795548-normal","highlight":"#icon-1899-795548-highlight"},"description":"TEL2","icon-scale":1,"icon-offset":[32,64],"icon":"images/icon-11.png","label-scale":0}},
{"type":"Feature","geometry":{"type":"Point","coordinates":[103.8329967,1.3632965,0]},"properties":{"name":"TE7 Bright Hill\n","styleUrl":"#icon-1899-795548","styleHash":"3f289537","styleMapHash":{"normal":"#icon-1899-795548-normal","highlight":"#icon-1899-795548-highlight"},"description":"TEL2","icon-scale":1,"icon-offset":[32,64],"icon":"images/icon-11.png","label-scale":0}},
{"type":"Feature","geometry":{"type":"Point","coordinates":[103.8338127,1.3539717,0]},"properties":{"name":"TE8 Upper Thomson","styleUrl":"#icon-1899-795548","styleHash":"3f289537","styleMapHash":{"normal":"#icon-1899-795548-normal","highlight":"#icon-1899-795548-highlight"},"description":"TEL2","icon-scale":1,"icon-offset":[32,64],"icon":"images/icon-11.png","label-scale":0}},
{"type":"Feature","geometry":{"type":"Point","coordinates":[103.8398365,1.337716,0]},"properties":{"name":"TE9 Caldecott","styleUrl":"#icon-1716-795548","styleHash":"-151307f5","styleMapHash":{"normal":"#icon-1716-795548-normal","highlight":"#icon-1716-795548-highlight"},"description":"TEL2","icon-scale":1,"icon":"images/icon-12.png","label-scale":0}}
]}